City_ID,City,Lat,Lng,Max Temp,Humidity,Cloudiness,Wind Speed,Country,Date
0,bilibino,68.0546,166.4372,-12.63,93,93,2.77,RU,1730420838
1,adamstown,-25.066,-130.1015,21.13,82,100,11.91,PN,1730420839
2,kabalo,-6.05,26.9167,21.26,97,98,0.91,CD,1730420840
3,sechura,-5.5569,-80.8222,18.77,73,60,6.98,PE,1730420841
4,keflavik,64.0049,-22.5624,1.24,51,0,6.69,IS,1730420842
5,afaahiti,-17.75,-149.2833,23.31,77,59,7.0,PF,1730420843
6,west island,-12.1568,96.8225,25.99,83,89,6.17,CC,1730420844
7,barcelos,41.5388,-8.6151,14.97,83,76,2.2,PT,1730420845
8,punta arenas,-53.15,-70.9167,14.06,51,75,2.06,CL,1730420847
9,tynda,55.1667,124.7167,-9.0,93,97,1.18,RU,1730420848
10,waitangi,-43.9535,-176.5597,12.64,87,60,7.75,NZ,1730420849
11,alofi,-19.0595,-169.9187,27.94,78,100,5.14,NU,1730420850
12,invercargill,-46.4,168.35,7.41,91,100,1.55,NZ,1730420851
13,olonkinbyen,70.9221,-8.7187,-4.84,61,100,12.66,SJ,1730420852
14,aykhal,66.0,111.5,-14.21,97,100,0.99,RU,1730420853
15,blackmans bay,-43.0167,147.3167,13.07,65,39,1.79,AU,1730420854
16,ust-nera,64.5667,143.2,-23.51,99,99,1.46,RU,1730420855
17,talnakh,69.4865,88.3972,-9.55,94,100,5.02,RU,1730420856
18,taoudenni,22.6783,-3.9836,28.24,13,29,3.79,ML,1730420857
19,puerto natales,-51.7236,-72.4875,11.77,74,100,1.71,CL,1730420858
20,makokou,0.5738,12.8642,20.71,99,96,0.41,GA,1730420860
21,hotan,37.0997,79.9269,9.61,33,94,2.7,CN,1730420861
22,la ronge,55.1001,-105.2842,-1.86,64,20,4.63,CA,1730420862
23,bredasdorp,-34.5322,20.0403,15.13,97,28,2.6,ZA,1730420863
24,avarua,-21.2078,-159.775,27.03,69,61,6.17,CK,1730420864
25,mukalla,14.5425,49.1242,24.87,62,44,1.84,YE,1730420865
26,praya,14.9215,-23.5087,25.59,78,99,4.35,CV,1730420866
27,chernyshkovskiy,48.4219,42.2308,4.48,84,87,3.17,RU,1730420867
28,grytviken,-54.2811,-36.5092,-1.04,75,44,6.31,GS,1730420868
29,port-aux-francais,-49.35,70.2167,5.75,92,100,15.43,TF,1730420869
30,qaqortoq,60.7167,-46.0333,-0.32,95,100,10.09,GL,1730420870
31,port mathurin,-19.6833,63.4167,23.35,79,5,8.87,MU,1730420871
32,santa ana,33.7456,-117.8678,21.53,41,0,4.12,US,1730420873
33,nemuro,43.3236,145.575,12.08,68,47,5.78,JP,1730420874
34,albany,42.6001,-73.9662,20.85,65,50,0.89,US,1730420875
35,churu,28.3,74.95,23.9,37,0,2.88,IN,1730420876
36,flekkefjord,58.2971,6.6607,11.6,90,100,9.5,NO,1730420877
37,novyy urgal,51.0736,132.5642,-0.91,51,100,1.61,RU,1730420878
38,aasiaat,68.7098,-52.8699,-5.97,74,100,8.81,GL,1730420879
39,krasnokuts'k,50.066,35.1628,4.81,77,83,3.69,UA,1730420880
40,ancud,-41.8697,-73.8203,10.59,88,91,3.53,CL,1730420881
41,caleta de carquin,-11.0925,-77.6267,17.72,82,73,3.87,PE,1730420882
42,yellowknife,62.456,-114.3525,-5.33,100,100,7.72,CA,1730420883
43,praia da vitoria,38.7333,-27.0667,20.14,94,75,7.26,PT,1730420884
44,shalqar,47.8333,59.6,4.45,65,89,6.74,KZ,1730420885
45,st. john's,47.5649,-52.7093,8.97,96,100,6.17,CA,1730420886
46,ilulissat,69.2167,-51.1,-2.99,43,75,10.29,GL,1730420887
47,bethel,41.3712,-73.414,21.85,70,100,0.45,US,1730420888
48,jabor,5.921,169.6434,28.83,67,29,1.61,MH,1730420889
49,trevelin,-43.0858,-71.4639,14.44,61,45,2.26,AR,1730420890
50,undurkhaan,47.3194,110.6556,-1.57,82,83,2.12,MN,1730420892
51,oum hadjer,13.2954,19.6966,24.59,19,85,5.61,TD,1730420893
52,mananara,-16.1667,49.7667,22.83,89,82,0.61,MG,1730420894
53,isafjordur,66.0755,-23.124,-6.22,66,17,5.13,IS,1730420895
54,howard springs,-12.497,131.047,31.04,83,100,2.49,AU,1730420896
55,charlottetown,46.2352,-63.1267,14.87,88,75,5.14,CA,1730420897
56,souillac,-20.5167,57.5167,22.21,83,75,2.57,MU,1730420898
57,callao,-12.0667,-77.15,20.95,72,0,4.12,PE,1730420899
58,kavieng,-2.5744,150.7967,28.91,70,77,1.09,PG,1730420900
59,anadyr,64.75,177.4833,-2.72,68,40,10.0,RU,1730420901
60,likhoslavl',57.1275,35.464,2.75,97,100,3.55,RU,1730420902
61,belomorsk,64.5232,34.7668,-2.8,77,14,3.23,RU,1730420903
62,san jose del cabo,23.0589,-109.6977,28.66,75,40,5.14,MX,1730420904
63,buldan,38.045,28.8306,7.96,61,0,2.64,TR,1730420905
64,portland,45.5234,-122.6762,10.45,94,100,2.68,US,1730420785
65,dazhou,31.2159,107.5009,15.14,71,100,1.94,CN,1730420907
66,masjed soleyman,31.9364,49.3039,21.5,31,37,1.56,IR,1730420909
67,tazovsky,67.4667,78.7,-5.64,93,99,6.37,RU,1730420910
68,sao joao da barra,-21.6403,-41.0511,22.08,87,12,3.32,BR,1730420911
69,alaghsas,17.0187,8.0168,24.4,16,93,5.63,NE,1730420912
70,firuzabad,28.8438,52.5707,17.82,55,76,0.77,IR,1730420913
71,iqaluit,63.7506,-68.5145,-0.15,74,100,11.32,CA,1730420914
72,edinburgh of the seven seas,-37.0676,-12.3116,14.1,80,60,11.04,SH,1730420915
73,opuwo,-18.0607,13.84,21.51,27,0,2.83,NA,1730420916
74,mount gambier,-37.8333,140.7667,12.98,50,100,2.4,AU,1730420917
75,port saint john's,-31.6229,29.5448,16.72,86,21,3.24,ZA,1730420918
76,tweed heads,-28.1817,153.547,26.02,65,61,6.17,AU,1730420919
77,codrington,-38.2667,141.9667,13.68,49,99,4.69,AU,1730420920
78,juneau,58.3019,-134.4197,5.61,97,75,0.0,US,1730420921
79,al hilaliyya,14.9398,33.234,26.47,17,100,5.9,SD,1730420922
80,melfort,52.8667,-104.6177,-0.93,80,53,3.6,CA,1730420924
81,tiksi,71.6872,128.8694,-24.35,100,94,1.63,RU,1730420925
82,colinton,55.9074,-3.2561,11.49,89,100,5.14,GB,1730420926
83,udachny,66.4167,112.4,-14.17,97,100,0.6,RU,1730420927
84,sabang,5.8933,95.3214,28.32,77,43,7.25,ID,1730420928
85,haiku-pauwela,20.9219,-156.3051,27.01,80,75,13.41,US,1730420929
86,lebu,-37.6167,-73.65,11.54,87,85,3.24,CL,1730420930
87,bodo,67.28,14.405,3.02,65,75,6.69,NO,1730420931
88,puerto rico,-26.796,-55.024,26.69,47,85,1.89,AR,1730420932
89,kushima,31.4583,131.2333,21.36,94,100,2.55,JP,1730420933
90,palikir - national government center,6.9248,158.1611,29.41,74,100,2.57,FM,1730420934
91,kingston,17.997,-76.7936,26.76,76,67,2.52,JM,1730420935
92,nykobing sjaelland,55.9249,11.6711,12.23,83,56,13.5,DK,1730420936
93,college,64.8569,-147.8028,-7.53,75,100,2.06,US,1730420883
94,richards bay,-28.783,32.0377,17.92,86,10,1.23,ZA,1730420938
95,thompson,55.7435,-97.8558,-4.91,54,75,1.54,CA,1730420940
96,koszeg,47.3892,16.541,9.71,99,100,1.2,HU,1730420941
97,uray,60.1247,64.7758,0.0,79,51,7.33,RU,1730420942
98,constantia,44.1833,28.65,11.5,70,98,2.74,RO,1730420943
99,luderitz,-26.6481,15.1594,18.24,62,8,1.77,NA,1730420944
100,iskateley,67.6803,53.1512,0.84,97,100,9.86,RU,1730420945
101,cidreira,-30.1811,-50.2056,20.78,82,11,12.87,BR,1730420946
102,puerto aysen,-45.4,-72.7,11.3,94,91,1.27,CL,1730420947
103,san onofre,9.7359,-75.5263,25.42,88,100,2.93,CO,1730420948
104,ondjiva,-17.0667,15.7333,25.02,16,48,2.57,AO,1730420949
105,the bottom,17.6259,-63.2492,25.03,79,100,8.27,BQ,1730420950
106,nishinoomote,30.7333,131.0,25.31,88,75,3.09,JP,1730420951
107,port macquarie,-31.4333,152.9167,19.48,87,65,0.45,AU,1730420952
108,eyl,7.9803,49.8164,25.77,73,24,3.73,SO,1730420953
109,luena,-11.7833,19.9167,18.37,86,100,1.0,AO,1730420954
110,nyrob,60.733,56.7202,1.41,97,100,5.09,RU,1730420955
111,lodja,-3.4833,23.4333,18.95,98,98,0.86,CD,1730420956
112,geraldton,-28.7667,114.6,23.23,73,74,6.17,AU,1730420796
113,port sudan,19.6175,37.2164,29.44,74,4,2.11,SD,1730420959
114,nantucket,41.2835,-70.0995,16.06,88,0,7.77,US,1730420960
115,port lincoln,-34.7333,135.8667,14.82,60,98,6.1,AU,1730420961
116,ola,59.5833,151.2833,-7.26,61,99,6.13,RU,1730420962
117,chonchi,-42.6128,-73.8092,12.29,86,89,1.49,CL,1730420963
118,balkanabat,39.5108,54.3671,14.01,44,18,1.06,TM,1730420964
119,jamestown,42.097,-79.2353,22.79,60,75,7.2,US,1730420965
120,stanley,54.868,-1.6985,9.01,98,75,6.17,GB,1730420966
121,novodvinsk,64.4165,40.8122,-0.14,89,99,4.34,RU,1730420967
122,margaret river,-33.95,115.0667,18.37,70,100,3.26,AU,1730420968
123,whitehorse,60.7161,-135.0538,-0.5,92,75,7.15,CA,1730420969
124,port elizabeth,-33.918,25.5701,16.16,96,0,2.57,ZA,1730420970
125,al marj,32.488,20.8317,16.85,66,29,6.21,LY,1730420971
126,shunyi,40.125,116.6453,11.97,100,0,3.0,CN,1730420972
127,sinan,34.8262,126.1086,14.74,72,100,8.54,KR,1730420973
128,ribeira grande,38.5167,-28.7,22.1,94,100,8.49,PT,1730420974
129,lompoc,34.6391,-120.4579,16.5,73,40,5.66,US,1730420829
130,ambon,-3.6954,128.1814,28.46,100,89,1.32,ID,1730420977
131,rio grande,-32.035,-52.0986,20.19,82,11,10.67,BR,1730420978
132,polyarnyy,69.1989,33.4478,-2.82,79,83,10.08,RU,1730420979
133,el granada,37.5027,-122.4694,16.91,72,0,7.72,US,1730420980
134,dossor,47.5272,52.9811,11.16,88,100,8.38,KZ,1730420981
135,touros,-5.1989,-35.4608,25.42,75,93,6.87,BR,1730420982
136,hamilton,39.1834,-84.5333,17.16,93,100,4.12,US,1730420983
137,mirny,62.5353,113.9611,-17.72,99,99,0.74,RU,1730420984
138,ushuaia,-54.8,-68.3,13.81,54,40,0.51,AR,1730420985
139,severobaykal'sk,55.65,109.3167,-3.95,78,98,1.72,RU,1730420986
140,puerto ayora,-0.7393,-90.3518,20.86,95,75,2.68,EC,1730420987
141,onguday,50.75,86.15,-0.88,89,100,1.4,RU,1730420988
142,tagaytay,14.115,120.9636,23.86,88,93,0.55,PH,1730420989
143,princeville,45.7668,-61.2985,14.06,94,20,4.12,CA,1730420990
144,north bondi,-33.8824,151.2769,22.41,62,75,4.63,AU,1730420991
145,okahandja,-21.9833,16.9167,20.68,33,0,2.89,NA,1730420993
146,colchani,-20.3,-66.9333,13.21,15,0,8.34,BO,1730420994
147,maryville,35.7565,-83.9705,22.17,57,0,2.57,US,1730420995
148,kalavad,22.2167,70.3833,26.3,37,0,2.16,IN,1730420996
149,lihue,21.9789,-159.3672,27.77,71,40,8.23,US,1730420997
150,mabaruma,8.2,-59.7833,24.55,87,54,0.61,GY,1730420998
151,dakhla,23.6848,-15.958,19.01,88,0,5.66,EH,1730420999
152,hawaiian paradise park,19.5933,-154.9731,26.73,88,100,5.66,US,1730421000
153,atherton,53.5237,-2.4935,12.16,88,100,1.34,GB,1730421001
154,isla vista,34.4133,-119.861,19.88,66,0,1.54,US,1730421002
155,peterhead,57.5058,-1.7981,14.9,74,100,11.34,GB,1730421003
156,kapuskasing,49.4169,-82.4331,1.0,93,100,4.12,CA,1730421004
157,margate,51.3813,1.3862,12.05,91,0,3.37,GB,1730421005
158,courtenay,49.6866,-124.9936,10.11,71,75,6.17,CA,1730420947
159,klyuchi,52.2667,79.1667,1.94,92,93,3.1,RU,1730421007
160,yinchuan,38.4681,106.2731,12.73,64,99,0.82,CN,1730421008
161,tura,25.5198,90.2201,23.4,74,100,1.05,IN,1730421009
162,baiyin,36.5583,104.2081,9.93,53,100,0.78,CN,1730421011
163,luwuk,-0.9516,122.7875,29.66,61,100,2.41,ID,1730421012
164,lucapa,-8.4192,20.7447,19.3,97,100,0.61,AO,1730421013
165,sennori,40.7914,8.595,16.44,71,1,2.62,IT,1730421014
166,maceio,-9.6658,-35.7353,23.69,94,40,2.06,BR,1730420917
167,ishigaki,24.3448,124.1572,29.07,84,75,11.32,JP,1730421016
168,pushkinskiye gory,57.0209,28.9103,9.11,93,100,5.42,RU,1730421017
169,la passe,45.5549,-0.8967,15.32,87,0,3.46,FR,1730421018
170,wagar,16.1525,36.2032,27.67,17,100,5.6,SD,1730421019
171,kayangel,8.0823,134.7173,28.61,76,22,5.32,PW,1730421020
172,lewistown,40.5992,-77.5714,22.67,53,0,1.54,US,1730421021
173,amahai,-3.3333,128.9167,28.5,73,76,1.06,ID,1730421022
174,fort bragg,35.139,-79.006,22.85,71,0,2.24,US,1730421023
175,beyneu,45.3167,55.2,11.35,70,91,6.35,KZ,1730421024
176,ciudad lazaro cardenas,17.9583,-102.2,26.95,80,100,2.27,MX,1730421025
177,maun,-19.9833,23.4167,25.98,53,0,6.69,BW,1730421026
178,san ignacio,17.1561,-89.0714,24.08,94,40,2.06,BZ,1730421028
179,kavaratti,10.5669,72.642,27.43,68,7,1.57,IN,1730421029
180,sinjar,36.3209,41.8754,15.98,33,0,2.03,IQ,1730421030
181,saldanha,-33.0117,17.9442,15.03,89,2,5.29,ZA,1730421031
182,boende,-0.2167,20.8667,20.75,99,91,0.23,CD,1730421032
183,mili,6.0815,171.735,28.37,68,0,0.55,MH,1730421033
184,longyearbyen,78.2186,15.6401,-10.09,85,20,2.06,SJ,1730421034
185,dudinka,69.4058,86.1778,-7.63,93,100,8.18,RU,1730421035
186,nowshahr,36.649,51.496,11.97,94,0,1.03,IR,1730421036
187,garden city,42.3256,-83.331,19.38,75,100,11.32,US,1730421037
188,la'ie,21.6477,-157.9253,28.98,73,4,4.92,US,1730421038
189,mount pearl,47.5166,-52.7813,8.51,98,100,6.17,CA,1730421039
190,wailua homesteads,22.0669,-159.378,27.44,77,40,8.23,US,1730421040
191,ketchikan,55.3422,-131.6461,9.26,81,100,0.0,US,1730421041
192,kimbe,-5.5502,150.1429,28.04,82,100,1.25,PG,1730421042
193,polovinnoye,54.7914,65.9864,-0.46,87,11,5.84,RU,1730421043
194,flying fish cove,-10.4217,105.6791,26.82,89,100,4.12,CX,1730421045
195,narasimharajapura,13.6167,75.5167,19.42,95,63,0.75,IN,1730421046
196,gwadar,25.1216,62.3254,25.61,69,0,1.5,PK,1730421047
197,minas de marcona,-15.2119,-75.1103,13.48,80,0,4.62,PE,1730421048
198,port alfred,-33.5906,26.891,16.21,90,9,0.89,ZA,1730421049
199,kongsvinger,60.1905,11.9977,12.71,63,99,6.51,NO,1730421050
200,kismayo,-0.3582,42.5454,25.37,80,9,5.21,SO,1730421051
201,papao,-17.75,-149.55,27.82,78,37,7.96,PF,1730421052
202,lowestoft,52.4752,1.7516,8.9,94,9,3.46,GB,1730421053
203,grootfontein,-19.5667,18.1167,15.76,29,3,1.54,NA,1730421054
204,ulety,51.3572,112.4849,-3.67,76,46,1.27,RU,1730421055
205,brookings,44.3114,-96.7984,3.0,60,0,2.57,US,1730421056
206,luanda,-8.8368,13.2343,25.0,83,100,2.57,AO,1730421057
207,north bend,43.4065,-124.2243,12.37,94,100,6.69,US,1730421058
208,vilyuchinsk,52.9306,158.4028,2.15,58,10,4.06,RU,1730421059
209,santyoku,37.4406,129.1708,16.77,53,100,0.29,KR,1730421060
210,morozovsk,48.3539,41.8261,4.11,86,35,3.1,RU,1730421062
211,saguenay,48.4168,-71.0657,6.46,95,100,4.12,CA,1730421063
212,tshabong,-26.05,22.45,19.51,17,3,3.96,BW,1730421064
213,uturoa,-16.7333,-151.4333,25.36,62,0,5.95,PF,1730421065
214,muang xay,20.7,101.9833,24.1,68,8,0.26,LA,1730421066
215,kerikeri,-35.2268,173.9474,21.1,44,0,3.32,NZ,1730421054
216,molde,62.7375,7.1591,3.91,100,75,2.06,NO,1730421068
217,qamdo,31.1667,97.2333,2.19,69,100,2.06,CN,1730421069
218,badger,64.8,-147.5333,-7.58,76,100,2.06,US,1730421070
219,hasaki,35.7333,140.8333,22.42,63,100,5.93,JP,1730421071
220,papatowai,-46.5619,169.4708,7.99,92,100,1.18,NZ,1730421073
221,tolanaro,-25.0319,46.9987,22.04,88,20,2.06,MG,1730421074
222,ashburton,-37.8626,145.0794,15.2,47,100,1.34,AU,1730421075
223,ormara,25.2088,64.6357,26.48,71,0,3.22,PK,1730421076
224,hermanus,-34.4187,19.2345,16.0,93,6,4.34,ZA,1730421077
225,tsiombe,-25.3,45.4833,21.28,92,46,2.12,MG,1730421078
226,mao,39.8885,4.2658,21.31,88,75,3.09,ES,1730421079
227,priob'ye,62.5206,65.5964,0.88,77,100,8.61,RU,1730421080
228,swakopmund,-22.6833,14.5333,14.99,83,2,2.24,NA,1730421081
229,saint-pierre,-21.3393,55.4781,21.82,64,0,3.09,RE,1730421082
230,yuzhno-kurilsk,44.0306,145.8556,12.54,62,24,2.7,RU,1730421083
231,leninsk,48.7119,45.1994,5.61,75,99,3.61,RU,1730421084
232,altagracia de orituco,9.8601,-66.3814,24.45,77,44,1.86,VE,1730421085
233,pisco,-13.7,-76.2167,18.03,82,0,6.17,PE,1730421086
234,ojinaga,29.5667,-104.4167,26.53,17,0,4.12,MX,1730421088
235,suva,-18.1416,178.4415,27.71,78,75,4.63,FJ,1730421089
236,khovd,48.0056,91.6419,-2.71,40,100,2.79,MN,1730421090
237,georgetown,5.4112,100.3354,26.96,88,40,1.03,MY,1730421091
238,north platte,41.1239,-100.7654,9.65,59,0,2.68,US,1730421092
239,dokuchayevs'k,47.7477,37.6738,6.17,79,100,2.7,UA,1730421093
240,churachandpur,24.3333,93.6667,15.67,96,77,0.45,IN,1730421094
241,charcas,23.1333,-101.1167,19.15,51,32,4.62,MX,1730421095
242,atafu village,-8.5421,-172.5159,28.0,67,98,2.53,TK,1730421096
243,voznesenskoye,54.89,42.7569,-0.88,85,62,3.72,RU,1730421098
244,sinop,41.7711,34.8709,7.72,80,60,2.05,TR,1730421099
245,gadzhiyevo,69.2551,33.3362,-2.76,80,91,10.38,RU,1730420920
246,antonio enes,-16.2325,39.9086,24.3,92,100,1.58,MZ,1730421101
247,trairi,-3.2778,-39.2689,24.87,80,47,3.94,BR,1730421102
248,den burg,53.0542,4.7972,13.99,82,100,5.66,NL,1730421103
249,tazacorte,28.629,-17.9293,18.54,59,0,3.6,ES,1730421104
250,aneho,6.2333,1.6,26.15,86,6,3.23,TG,1730421105
251,goba,7.0167,39.9833,11.28,96,100,0.78,ET,1730421106
252,el kef,36.1742,8.7049,18.19,72,5,2.27,TN,1730421107
253,wynyard,-41.0,145.7167,15.1,57,6,2.24,AU,1730421108
254,lincoln city,44.9582,-124.0179,12.05,97,98,4.47,US,1730420865
255,svetlyy,54.675,20.1347,12.79,81,100,11.95,RU,1730421110
256,igarka,67.4667,86.5833,-8.85,95,100,6.94,RU,1730421111
257,urmary,55.6789,47.944,-0.37,79,98,6.7,RU,1730421112
258,inarajan village,13.2736,144.7484,28.77,89,100,7.66,GU,1730421113
259,tembisa,-25.9964,28.2268,16.51,79,0,4.63,ZA,1730421114
260,juan de acosta,10.8281,-75.0334,26.77,87,100,3.48,CO,1730421116
261,chokwe,-24.5333,32.9833,19.08,86,0,1.73,MZ,1730421117
262,susuman,62.7833,148.1667,-20.42,96,97,1.18,RU,1730421118
263,coahuayana de hidalgo,18.7,-103.6583,25.62,89,97,1.03,MX,1730421119
264,san julian,21.0167,-102.1667,17.06,39,3,3.03,MX,1730421120
265,yelizovo,53.1873,158.3805,2.08,41,0,8.0,RU,1730421121
266,rahachow,53.0934,30.0495,8.32,85,100,7.76,BY,1730421122
267,es castell,39.8795,4.2854,21.38,88,75,3.09,ES,1730421123
268,burewala,30.1667,72.65,23.07,31,0,1.19,PK,1730421124
269,vadso,70.0744,29.7487,-0.91,86,0,8.75,NO,1730421125
270,loei,17.4167,101.5,16.65,77,58,0.4,TH,1730421126
271,san antonio de pale,-1.4014,5.6325,25.1,83,84,4.08,GQ,1730421127
272,luoyang,34.6836,112.4536,14.35,68,100,1.85,CN,1730421128
273,corinto,37.9407,22.9573,14.94,56,0,2.47,GR,1730421129
274,libres,19.4667,-97.6833,14.29,84,30,3.13,MX,1730421130
275,utrik,11.2278,169.8474,28.34,77,100,4.42,MH,1730421131
276,san angelo,31.4638,-100.437,21.12,40,0,2.68,US,1730421133
277,buala,-8.145,159.5921,28.78,76,93,1.76,SB,1730421134
278,holualoa,19.6228,-155.9522,27.53,75,75,3.6,US,1730421135
279,turpan,42.9333,89.1667,10.83,51,31,0.61,CN,1730421136
280,saipan,15.1355,145.701,31.39,74,40,9.26,MP,1730421137
281,suncho corral,-27.9336,-63.4294,21.2,88,99,4.42,AR,1730421138
282,carauari,-4.8828,-66.8958,30.22,52,100,0.07,BR,1730421139
283,diu,20.7141,70.9822,26.38,47,0,3.27,IN,1730421140
284,hadibu,12.65,54.0333,25.05,76,0,2.6,YE,1730421141
285,morehead city,34.7229,-76.726,22.25,83,75,2.06,US,1730421142
286,arawa,-6.2132,155.5367,29.77,74,100,1.64,PG,1730421143
287,belawan,3.7755,98.6832,28.43,27,100,1.15,ID,1730421144
288,colonia,50.9333,6.95,8.87,93,0,1.03,DE,1730421145
289,shimoda,34.6667,138.95,22.78,66,100,3.28,JP,1730421146
290,thabazimbi,-24.5917,27.4116,18.27,64,0,3.38,ZA,1730421148
291,mrakovo,52.7161,56.6244,2.14,96,100,5.54,RU,1730421149
292,'ain el hadjar,34.7585,0.1453,13.61,41,0,1.77,DZ,1730421150
293,magistral'nyy,56.1725,107.4458,-2.35,79,100,1.25,RU,1730421151
294,nova vicosa,-17.8919,-39.3719,23.1,88,100,2.05,BR,1730421152
295,leirvik,59.7798,5.5005,12.57,84,100,9.45,NO,1730421153
296,rongelap,11.1635,166.8941,28.31,78,57,4.7,MH,1730421154
297,kembe,4.6228,21.8865,21.01,98,98,0.88,CF,1730421155
298,enewetak,11.3474,162.3373,28.66,77,37,6.64,MH,1730421156
299,lamu,-2.2717,40.902,25.29,85,41,5.76,KE,1730420913
300,bukama,-9.2,25.85,21.58,96,100,1.02,CD,1730421158
301,parham,17.0968,-61.7705,26.13,77,75,1.54,AG,1730421159
302,yangambi,0.8102,24.4336,20.44,99,100,1.08,CD,1730421160
303,howrah,22.5892,88.3103,27.0,89,40,1.54,IN,1730421161
304,uttar char fasson,22.2332,90.7132,26.19,81,83,2.71,BD,1730421162
305,mhamid,29.82,-5.72,18.59,30,0,1.49,MA,1730421164
306,tangalle,6.024,80.7911,25.39,89,100,2.28,LK,1730421165
307,mount isa,-20.7333,139.5,28.87,51,0,4.63,AU,1730421007
308,chui,-33.6971,-53.4616,18.93,84,100,6.58,UY,1730421167
309,camapua,-19.5314,-54.0439,24.3,61,18,1.41,BR,1730421168
310,ataq,14.5377,46.8319,19.34,55,4,3.59,YE,1730421169
311,muroto-misakicho,33.2833,134.15,24.14,78,100,6.34,JP,1730421170
312,alva,56.1528,-3.8051,9.85,95,100,5.09,GB,1730421171
313,newman,37.3138,-121.0208,17.8,46,73,3.13,US,1730421172
314,maturin,9.75,-63.1767,28.91,79,1,2.06,VE,1730421173
315,solleftea,63.1667,17.2667,-0.08,97,100,2.01,SE,1730421174
316,lorengau,-2.0226,147.2712,28.38,77,93,1.43,PG,1730421175
317,naqadeh,36.9553,45.388,8.8,42,5,0.5,IR,1730421176
318,alice springs,-23.7,133.8833,32.75,10,67,7.72,AU,1730420904
319,bariri,-22.0744,-48.7403,21.82,69,72,5.78,BR,1730421179
320,chabahar,25.2919,60.643,26.94,68,0,1.62,IR,1730421180
321,sterlibashevo,53.4376,55.2578,1.51,83,100,8.44,RU,1730421181
322,vila velha,-20.3297,-40.2925,22.75,92,75,1.54,BR,1730421182
323,sialkot,32.5101,74.5431,17.72,83,0,0.0,PK,1730421183
324,two rivers,44.1539,-87.5693,8.07,74,100,9.26,US,1730421184
325,aginskoye,51.1,114.53,-2.12,65,1,2.15,RU,1730421185
326,puerto baquerizo moreno,-0.9,-89.6,20.58,82,100,6.15,EC,1730421186
327,labytnangi,66.6572,66.4183,-0.48,93,100,7.81,RU,1730421187
328,sebastopol,44.6,33.5333,13.33,56,100,2.71,UA,1730421188
329,lagoa,39.05,-27.9833,20.3,89,100,12.87,PT,1730421189
330,galesong,-5.3166,119.3661,29.63,65,32,1.53,ID,1730421190
331,balao,-2.9167,-79.8167,21.67,85,87,3.72,EC,1730421191
332,bardai,11.65,7.2333,19.4,25,57,3.39,NG,1730421192
333,fortuna,40.5982,-124.1573,14.4,84,100,3.09,US,1730421193
334,panadura,6.7132,79.9026,26.13,84,100,0.47,LK,1730421194
335,mirnyy,62.5353,113.9611,-17.32,98,96,0.69,RU,1730421196
336,ndofane,13.9167,-15.9333,26.18,72,87,3.33,SN,1730421197
337,makoua,0.0069,15.6333,21.64,95,100,0.48,CG,1730421198
338,saudarkrokur,65.7461,-19.6394,-8.87,93,8,6.05,IS,1730421199
339,twon-brass,4.3151,6.2418,26.49,84,76,3.78,NG,1730421200
340,st. paul,44.9444,-93.0933,3.14,93,100,4.63,US,1730421040
341,nieuw amsterdam,5.8833,-55.0833,25.91,86,7,4.24,SR,1730421202
342,karratha,-20.7377,116.8463,36.17,20,0,6.66,AU,1730421186
343,el nido,11.1858,119.3956,28.97,82,100,0.89,PH,1730421204
344,yerofey pavlovich,53.9667,121.9667,-2.68,86,96,0.93,RU,1730421205
345,wellington,-41.2866,174.7756,17.81,75,75,11.32,NZ,1730421142
346,east london,-33.0153,27.9116,16.45,84,65,5.0,ZA,1730421207
347,coquimbo,-29.9533,-71.3436,14.85,81,75,2.57,CL,1730421208
348,remire-montjoly,4.9167,-52.2667,27.02,83,0,2.57,GF,1730420928
349,mountain home,43.133,-115.6912,8.71,54,40,2.57,US,1730421210
350,grand falls-windsor,48.9332,-55.6649,9.72,92,100,3.0,CA,1730421211
351,banda aceh,5.5577,95.3222,27.78,71,60,4.72,ID,1730421212
352,igbo-ora,7.4333,3.2833,24.1,88,5,1.08,NG,1730421214
353,mitu,1.1983,-70.1733,25.12,78,39,0.92,CO,1730421215
354,kodiak,57.79,-152.4072,3.73,87,100,6.69,US,1730421216
355,happy valley-goose bay,53.3168,-60.3315,1.17,75,40,3.6,CA,1730421217
356,anloga,5.7947,0.8973,26.62,84,14,3.4,GH,1730421218
357,gevgelija,41.1392,22.5025,13.65,68,0,3.06,MK,1730421219
358,weno,7.4515,151.8468,28.97,84,100,3.6,FM,1730421220
359,sitka,57.0531,-135.33,8.94,76,100,0.0,US,1730421137
360,crest,44.7284,5.0272,11.9,86,0,1.08,FR,1730421222
361,el fasher,13.6279,25.3494,23.39,20,100,2.99,SD,1730421223
362,bamboo flat,11.7,92.7167,25.05,100,68,0.0,IN,1730421224
363,tralee,52.2704,-9.7026,12.11,79,100,1.43,IE,1730421225
364,malpe,13.35,74.7167,24.27,92,72,1.64,IN,1730421226
365,bac lieu,9.285,105.7244,28.21,80,100,4.14,VN,1730421227
366,am timan,11.0297,20.2827,23.46,30,98,1.57,TD,1730421228
367,balotra,25.8333,72.2333,26.04,32,0,1.85,IN,1730421229
368,vorgashor,67.5833,63.95,-1.73,85,81,9.98,RU,1730421231
369,sisimiut,66.9395,-53.6735,-0.9,67,100,8.73,GL,1730421232
370,thunder bay,48.4001,-89.3168,2.99,55,75,3.09,CA,1730421233
371,pacific grove,36.6177,-121.9166,15.37,87,0,3.09,US,1730421234
372,santa rosalia,27.3167,-112.2833,18.98,53,19,0.49,MX,1730421235
373,prineville,44.2999,-120.8345,8.39,64,75,6.17,US,1730421236
374,revda,56.801,59.9303,0.5,95,100,5.81,RU,1730421145
375,phan rang-thap cham,11.5667,108.9833,26.7,80,100,0.8,VN,1730421238
376,samux,40.7647,46.4085,11.56,66,20,5.14,AZ,1730421239
377,yeniseysk,58.4497,92.1703,-3.23,78,87,2.47,RU,1730421240
378,daru,-9.0763,143.2092,27.27,72,100,3.81,PG,1730421241
379,aykol,38.1751,77.2132,7.53,43,1,1.26,CN,1730421242
380,prado,-17.3411,-39.2208,22.78,91,100,0.95,BR,1730421243
381,khandyga,62.6667,135.6,-17.95,89,100,0.4,RU,1730421244
382,laayoune,27.1622,-13.2032,17.19,100,0,5.14,EH,1730421245
383,san pedro pochutla,15.7333,-96.4667,28.84,92,100,2.04,MX,1730421246
384,nehe,48.4833,124.8333,4.72,74,100,2.36,CN,1730421247
385,berezovyy,51.6667,135.7,1.12,53,25,1.11,RU,1730421249
386,new norfolk,-42.7826,147.0587,12.73,45,95,4.33,AU,1730421250
387,talcahuano,-36.7167,-73.1167,12.82,88,100,3.09,CL,1730421251
388,kuching,1.55,110.3333,27.8,90,20,0.51,MY,1730421252
389,kosonsoy,41.2561,71.5508,8.08,40,100,3.1,UZ,1730421253
390,peniche,39.3558,-9.3811,15.81,95,100,4.8,PT,1730421254
391,zhob,31.3411,69.4481,15.22,17,78,2.97,PK,1730421255
392,sodra sandby,56.5667,16.6167,13.27,85,100,11.28,SE,1730421256
393,sinabang,2.4803,96.3801,27.02,79,100,0.79,ID,1730421257
394,tharangambadi,11.0319,79.8528,26.01,83,100,0.59,IN,1730421258
395,shubarkuduk,49.1447,56.4872,7.25,85,100,9.64,KZ,1730421260
396,male,4.1748,73.5089,28.97,74,20,2.57,MV,1730421261
397,hafnarfjordur,64.0671,-21.9377,1.93,48,100,6.69,IS,1730421262
398,jayapura,-2.5333,140.7,29.66,74,33,1.56,ID,1730421263
399,pontiac,42.6389,-83.2911,18.28,77,75,6.69,US,1730421034
400,nar'yan-mar,67.6713,53.087,0.61,97,100,9.58,RU,1730421265
401,guelendeng,10.9176,15.5501,22.88,20,100,2.67,TD,1730421266
402,alpena,45.0617,-83.4327,17.18,78,20,4.02,US,1730421267
403,alotau,-10.3069,150.4462,31.3,50,100,2.02,PG,1730421268
404,general conesa,-40.1,-64.4333,22.26,57,16,8.83,AR,1730421269
405,federacion,-31.0062,-57.8996,23.25,64,100,3.52,AR,1730421270
406,magong,23.5654,119.5863,25.74,83,100,8.45,TW,1730421271
407,nova sintra,14.8667,-24.7167,26.93,76,100,2.48,CV,1730421272
408,puerto cabezas,14.0351,-83.3888,23.93,95,100,1.58,NI,1730421273
409,chita,52.0333,113.55,-9.06,93,40,1.0,RU,1730421274
410,al jawf,29.5,38.75,18.95,44,22,4.8,SA,1730421275
411,al majaridah,19.1236,41.9111,28.04,69,1,0.06,SA,1730421276
412,fort mcmurray,56.7268,-111.381,-2.23,86,100,3.6,CA,1730421278
413,saint-philippe,-21.3585,55.7679,22.26,86,64,6.1,RE,1730421279
414,al bawiti,28.3492,28.8659,16.3,73,0,2.86,EG,1730421280
415,punta del este,-34.9667,-54.95,17.15,96,0,3.13,UY,1730421281
416,aromashevo,56.8602,68.6375,0.82,87,100,6.34,RU,1730421282
417,zyryanovsk,49.7386,84.2719,0.19,85,100,0.31,KZ,1730421283
418,machiques,10.0644,-72.545,26.74,79,100,1.4,VE,1730421284
419,nagqu,31.5,92.0,-3.4,25,34,1.39,CN,1730421285
420,sabzevar,36.2126,57.6819,13.52,39,55,0.89,IR,1730421286
421,nuevo casas grandes,30.4167,-107.9167,16.74,27,20,1.73,MX,1730421287
422,pervomayskoye,43.919,46.7102,12.75,67,69,4.26,RU,1730421288
423,angaur state,6.906,134.13,28.59,74,52,4.02,PW,1730421289
424,hithadhoo,-0.6,73.0833,27.64,57,10,0.44,MV,1730421290
425,floro,61.5996,5.0328,8.98,87,100,13.38,NO,1730421292
426,buta,2.7858,24.73,20.56,100,87,0.61,CD,1730421293
427,hirna,9.2167,41.1,16.41,87,99,0.89,ET,1730421294
428,ghat,24.9647,10.1728,21.23,29,7,1.69,LY,1730421295
429,uzgen,40.7699,73.3007,8.34,47,100,1.65,KG,1730421296
430,solok,-0.7918,100.6593,25.84,78,100,0.79,ID,1730421297
431,mejit,10.2753,170.8646,28.45,75,26,3.4,MH,1730421298
432,belmonte,-15.8631,-38.8828,23.44,88,100,0.87,BR,1730421299
433,carnarvon,-24.8667,113.6333,24.97,66,0,5.15,AU,1730421300
434,cannonvale,-20.2833,148.7,25.66,61,100,6.38,AU,1730421301
435,reuleuet,5.2167,96.2833,27.5,63,100,0.73,ID,1730421302
436,dej,47.15,23.8667,9.4,95,100,0.87,RO,1730421303
437,road town,18.4167,-64.6167,24.93,80,100,7.62,VG,1730421304
438,balikesir,39.75,28.0,7.98,93,0,1.03,TR,1730421305
439,hammerfest,70.6634,23.6821,1.25,69,75,6.17,NO,1730421307
440,narrabri,-30.3167,149.7833,29.18,32,0,0.89,AU,1730421308
441,palangkaraya,-2.2,113.8333,26.27,87,100,1.53,ID,1730421309
442,petropavlovsk-kamchatsky,53.0452,158.6483,1.33,41,0,8.0,RU,1730421310
443,nichinan,31.6,131.3667,21.81,93,99,2.83,JP,1730421311
444,vorkuta,67.5,64.0,-1.4,85,78,10.26,RU,1730421312
445,labrador city,52.9463,-66.9114,-2.12,65,40,31.29,CA,1730421313
446,dauphin,51.1494,-100.0502,4.08,65,75,1.54,CA,1730421314
447,tadine,-21.55,167.8833,25.83,52,4,3.81,NC,1730421143
448,deqen,29.9618,90.7188,2.14,33,0,1.35,CN,1730421316
449,taro,-8.3862,115.28,27.79,65,99,0.12,ID,1730421317
450,marsh harbour,26.5412,-77.0636,25.86,68,80,9.54,BS,1730421318
451,camana,-16.6228,-72.7111,18.05,86,0,3.04,PE,1730421319
452,tokar,18.4254,37.729,29.65,68,3,2.71,SD,1730421320
453,khagrachhari,23.1,91.9667,22.75,87,5,0.38,BD,1730421321
454,pokhara,28.2333,83.9833,17.36,87,36,1.09,NP,1730421322
455,san patricio,28.017,-97.5169,26.97,74,2,3.41,US,1730421323
456,villamontes,-21.25,-63.5,21.08,93,100,2.95,BO,1730421325
457,bethanie,-26.4833,17.15,21.55,20,6,0.9,NA,1730421326
458,salinopolis,-0.6136,-47.3561,26.57,76,33,6.7,BR,1730421327
459,malango,-2.9627,119.9001,27.1,63,40,1.1,ID,1730421328
460,chardara,41.2547,67.9692,11.62,58,100,2.77,KZ,1730421329
461,kristiansund,63.1115,7.732,5.63,93,100,0.51,NO,1730421330
462,n'zeto,-7.2312,12.8666,24.85,83,78,2.52,AO,1730421331
463,fale old settlement,-9.3852,-171.2468,28.39,68,18,3.28,TK,1730421333
464,olinda,-8.0089,-34.8553,26.85,69,20,3.09,BR,1730421334
465,torrevieja,37.9787,-0.6822,19.58,78,7,0.89,ES,1730421335
466,niederkruchten,51.2,6.2167,8.43,95,0,2.47,DE,1730421336
467,hassi messaoud,31.6804,6.0729,20.92,52,0,1.03,DZ,1730421337
468,sao miguel do araguaia,-13.275,-50.1628,21.71,87,100,2.6,BR,1730421338
469,kaga bandoro,6.9896,19.1874,21.24,93,98,1.51,CF,1730421339
470,kolonia town,6.964,158.206,30.0,74,100,2.57,FM,1730421340
471,kete krachi,7.7939,-0.0498,26.87,74,9,3.21,GH,1730421341
472,arish,31.1316,33.7984,19.22,68,0,1.63,EG,1730421342
473,kodinsk,58.6881,99.1844,-3.71,96,100,1.46,RU,1730421343
474,isangel,-19.55,169.2667,29.06,65,75,2.57,VU,1730421344
475,nhamunda,-2.1861,-56.7131,26.24,74,28,1.92,BR,1730421345
476,machico,32.7,-16.7667,19.84,82,20,2.06,PT,1730421346
477,dawei,14.0833,98.2,26.02,89,26,1.37,MM,1730421347
478,tymovskoye,50.8456,142.655,1.15,52,4,1.82,RU,1730421349
479,batken,39.8333,71.0,2.54,43,100,2.96,KG,1730421350
480,nishiwaki,34.9833,134.9667,19.87,76,100,0.58,JP,1730421351
481,sudak,44.85,34.9667,11.32,76,100,2.58,UA,1730421096
482,asau,46.4333,26.4,8.87,90,100,2.57,RO,1730421353
483,zyrya,40.3661,50.2917,10.05,76,3,5.49,AZ,1730421354
484,nevada,39.2502,-116.7512,2.4,48,6,3.81,US,1730421355
485,tabuk,17.4189,121.4443,28.07,78,66,2.84,PH,1730421356
486,sotkamo,64.1333,28.4167,-2.53,82,7,2.62,FI,1730421357
487,inhambane,-23.865,35.3833,21.16,79,9,3.16,MZ,1730421358
488,blanchard,35.1378,-97.6581,15.05,67,0,2.64,US,1730421359
489,el calafate,-50.3408,-72.2768,11.77,72,100,2.95,AR,1730421360
490,mwene-ditu,-7.0,23.45,18.0,95,100,1.77,CD,1730421361
491,ngoro,-7.6839,112.258,29.88,63,85,1.47,ID,1730421362
492,camara de lobos,32.6333,-16.9667,19.84,79,20,2.06,PT,1730421363
493,mendi,-6.1761,143.6513,19.21,70,73,1.95,PG,1730421364
494,robore,-18.3333,-59.75,28.44,45,50,1.97,BO,1730421365
495,chegdomyn,51.1167,133.0167,-0.33,45,100,0.81,RU,1730421367
496,kolwezi,-10.7148,25.4667,16.9,96,100,2.5,CD,1730421368
497,genhe,50.7833,121.5167,-0.66,82,100,2.05,CN,1730421369
498,lubao,14.9167,120.55,27.84,80,100,1.31,PH,1730421370
499,cabo san lucas,22.8909,-109.9124,28.17,61,0,4.12,MX,1730421275
500,ulladulla,-35.35,150.4667,16.7,72,85,3.55,AU,1730421372
501,kruisfontein,-34.0033,24.7314,13.82,93,6,1.78,ZA,1730421373
502,fada,7.25,4.0667,23.14,98,16,0.23,NG,1730421374
503,nizhneudinsk,54.9076,99.0276,-2.42,70,100,2.41,RU,1730421375
504,dalbandin,28.8947,64.4101,18.89,28,0,2.12,PK,1730421376
505,beius,46.6667,22.35,10.44,91,93,0.79,RO,1730421377
506,erzincan,39.75,39.5,-2.39,86,0,1.03,TR,1730421378
507,zhigalovo,54.8097,105.1578,-0.93,76,100,1.11,RU,1730421379
508,mount pleasant,32.7941,-79.8626,22.77,85,0,2.57,US,1730421380
509,metzingen,48.5369,9.2833,10.42,85,100,1.54,DE,1730421381
510,da nang,16.0678,108.2208,22.99,88,20,1.54,VN,1730421382
511,tchintabaraden,15.8969,5.7985,24.53,17,65,4.61,NE,1730421383
512,thinadhoo,0.5333,72.9333,27.48,60,6,1.3,MV,1730421384
513,imperatriz,-5.5264,-47.4917,27.25,54,86,1.29,BR,1730421386
514,bonthe,7.5264,-12.505,25.42,86,100,1.36,SL,1730421387
515,santa vitoria,-18.8386,-50.1214,24.53,70,58,4.61,BR,1730421388
516,yatou,37.15,122.3833,16.49,73,100,6.7,CN,1730421389
517,balqash,46.8481,74.995,4.15,65,0,5.02,KZ,1730421390
518,mawlaik,23.6333,94.4167,21.63,96,53,0.11,MM,1730421391
519,manokwari,-0.8667,134.0833,28.61,68,1,2.17,ID,1730421392
520,guerrero negro,27.9769,-114.0611,18.38,66,100,6.21,MX,1730421393
521,kerrville,30.0474,-99.1403,23.92,53,0,2.57,US,1730421394
522,raduzhny,62.0961,77.475,-2.53,89,38,4.91,RU,1730421256
523,inongo,-1.95,18.2667,21.13,95,99,0.72,CD,1730421396
524,tobol'sk,58.2,68.2667,1.83,70,100,6.08,RU,1730421397
525,tocopilla,-22.092,-70.1979,18.34,72,33,1.94,CL,1730421398
526,el gouna,27.3942,33.6782,20.79,45,0,5.61,EG,1730421399
527,tengrela,10.4869,-6.4097,24.45,61,8,0.63,CI,1730421400
528,dodge city,37.7528,-100.0171,10.14,55,0,4.63,US,1730421263
529,fuerte olimpo,-21.0415,-57.8738,31.54,39,100,3.64,PY,1730421403
530,bismarck,46.8083,-100.7837,3.69,66,0,2.57,US,1730421404
531,namibe,-15.1961,12.1522,17.46,81,84,2.03,AO,1730421405
532,pawcatuck,41.3773,-71.8337,18.85,86,0,4.12,US,1730421406
533,naracoorte,-36.9579,140.7383,17.84,33,7,3.3,AU,1730421407
534,santa vitoria do palmar,-33.5189,-53.3681,19.22,83,100,6.23,BR,1730421408
535,kindu,-2.95,25.95,19.67,99,99,0.46,CD,1730421409
536,seward,40.907,-97.0989,8.38,77,48,1.01,US,1730421410
537,agat village,13.3886,144.6585,28.75,89,75,5.14,GU,1730421411
538,guigang,23.0964,109.6092,21.27,48,19,2.63,CN,1730421413
539,pallisa,1.145,33.7094,19.67,87,100,0.63,UG,1730421414
540,oamaru,-45.0784,170.9801,14.1,81,100,6.13,NZ,1730421415
541,miri,4.4148,114.0089,27.08,89,20,1.03,MY,1730421416
542,fortaleza,-3.7227,-38.5247,27.07,78,40,3.6,BR,1730421417
543,paramonga,-10.6667,-77.8333,17.38,84,70,2.95,PE,1730421418
544,villarrobledo,39.2699,-2.6012,13.13,81,90,4.98,ES,1730421419
545,berdigestyakh,62.0989,126.6992,-19.5,98,99,0.67,RU,1730421420
546,lautoka,-17.6167,177.4667,28.92,70,40,4.63,FJ,1730421421
547,bloomington,44.8408,-93.2983,3.56,91,100,4.12,US,1730421422
548,schneverdingen,53.1167,9.8,9.46,95,19,5.01,DE,1730421423
549,casper,42.8666,-106.3131,4.36,69,100,4.63,US,1730421211
550,key west,24.5557,-81.7826,27.0,71,0,7.2,US,1730421425
551,vilyuysk,63.7553,121.6247,-21.34,98,93,0.76,RU,1730421426
552,kiffa,16.6166,-11.4045,31.6,15,100,2.88,MR,1730421427
553,naze,28.3667,129.4833,27.51,88,100,6.51,JP,1730421428
554,mawu,34.4307,104.9176,5.33,85,100,1.82,CN,1730421429
555,taltal,-25.4,-70.4833,16.63,79,37,2.84,CL,1730421430
556,kailua-kona,19.6406,-155.9956,29.6,73,75,3.6,US,1730421431
557,tamanrasset,22.785,5.5228,18.95,27,0,5.14,DZ,1730421433
558,talakan,50.3167,130.3667,0.72,94,100,1.6,RU,1730421434
559,sandnessjoen,66.0217,12.6316,1.78,96,100,10.24,NO,1730421435
560,cabinda,-5.55,12.2,25.08,88,100,1.54,AO,1730421436
561,chernyshevskiy,63.0128,112.4714,-18.31,98,98,0.45,RU,1730421437
562,harstad,68.799,16.5293,-0.47,90,100,9.39,NO,1730421438
563,el galpon,-25.3807,-64.6526,21.25,91,100,3.61,AR,1730421439
564,pangai,-19.8,-174.35,28.06,78,40,5.14,TO,1730421440
565,iquique,-20.2208,-70.1431,17.06,82,53,1.57,CL,1730421339
566,noumea,-22.2763,166.4572,24.01,63,0,6.18,NC,1730421442
567,nyurba,63.2842,118.3319,-16.2,94,100,1.32,RU,1730421443
568,san-pedro,4.7485,-6.6363,24.37,93,9,0.76,CI,1730421444
569,barra de santo antonio,-9.4047,-35.5072,24.95,78,100,5.44,BR,1730421446
570,bahia de kino,28.8333,-111.9333,23.76,41,98,4.36,MX,1730421447
571,ingeniero jacobacci,-41.3427,-69.5448,18.01,28,54,8.11,AR,1730421448
572,tayoltita,24.0833,-105.9333,21.18,64,0,0.91,MX,1730421449
573,belyy yar,53.6039,91.3903,-2.06,93,75,2.0,RU,1730421450
574,pizarro,4.9533,-77.366,24.93,91,100,2.22,CO,1730421451
575,pangkalan brandan,4.0238,98.2782,25.0,92,100,0.72,ID,1730421452
576,farafenni,13.5667,-15.6,26.29,72,100,3.55,GM,1730421453
577,keren,15.7778,38.4581,23.31,57,89,0.99,ER,1730421454
578,takaungu,-3.6837,39.8566,25.59,84,57,4.08,KE,1730421455
579,arraial do cabo,-22.9661,-42.0278,22.56,88,1,3.82,BR,1730421456
580,orchha,25.35,78.65,22.99,43,2,1.47,IN,1730421458
581,nadi,-17.8,177.4167,29.0,70,40,4.63,FJ,1730421459
582,antsiranana,-12.2787,49.2917,23.43,85,27,5.28,MG,1730421460
